,City,Country,Date,Lat,Lng,Max Temp,Humidity,Cloudiness,Wind Speed,Current Description,Rain Inches (last 3 hrs),Snow Inches (last 3 hrs)
0,Ambilobe,MG,2020-05-08 03:32:59,-13.2,49.05,73.35,81,18,3.0,few clouds,0.0,0.0
1,Kalmunai,LK,2020-05-08 03:32:59,7.42,81.82,85.55,68,47,0.63,scattered clouds,0.0,0.0
2,Mataura,NZ,2020-05-08 03:32:59,-46.19,168.86,52.61,77,99,1.54,overcast clouds,0.0,0.0
3,Geraldton,AU,2020-05-08 03:32:59,-28.77,114.6,69.8,56,40,10.29,scattered clouds,0.0,0.0
4,Kaseda,JP,2020-05-08 03:32:59,31.42,130.32,71.6,49,75,16.11,broken clouds,0.0,0.0
5,Klaksvik,FO,2020-05-08 03:33:00,62.23,-6.59,42.8,93,100,6.78,light rain,0.0,0.0
6,San Clemente,US,2020-05-08 03:33:00,33.43,-117.61,68.0,86,77,1.19,broken clouds,0.0,0.0
7,Kieta,PG,2020-05-08 03:42:53,-6.22,155.63,84.52,69,36,4.65,light rain,0.21,0.0
8,Ushuaia,AR,2020-05-08 03:33:00,-54.8,-68.3,48.2,76,90,2.24,light rain,0.0,0.0
9,Jamestown,US,2020-05-08 03:33:00,42.1,-79.24,41.0,60,90,6.93,overcast clouds,0.0,0.0
10,Miyako,JP,2020-05-08 03:33:00,39.64,141.95,62.33,45,10,7.85,clear sky,0.0,0.0
11,Kaitangata,NZ,2020-05-08 03:33:01,-46.28,169.85,54.0,63,65,5.99,broken clouds,0.0,0.0
12,Saskylakh,RU,2020-05-08 03:33:01,71.92,114.08,8.58,93,85,7.83,overcast clouds,0.0,0.0
13,Dhidhdhoo,MV,2020-05-08 03:37:48,6.88,73.1,84.4,71,100,5.75,overcast clouds,0.0,0.0
14,Khatanga,RU,2020-05-08 03:42:54,71.97,102.5,16.32,93,0,11.48,clear sky,0.0,0.0
15,Busselton,AU,2020-05-08 03:33:01,-33.65,115.33,59.0,87,99,1.99,overcast clouds,0.0,0.0
16,Beringovskiy,RU,2020-05-08 03:33:01,63.05,179.32,31.93,99,100,10.76,snow,0.0,0.55
17,Atuona,PF,2020-05-08 03:33:02,-9.8,-139.03,80.71,77,84,18.48,broken clouds,0.0,0.0
18,Mahebourg,MU,2020-05-08 03:33:02,-20.41,57.7,71.6,94,40,4.83,scattered clouds,0.0,0.0
19,Port Alfred,ZA,2020-05-08 03:42:55,-33.59,26.89,64.0,80,96,4.0,overcast clouds,0.0,0.0
20,Saint George,US,2020-05-08 03:31:24,37.1,-113.58,77.0,8,1,27.51,clear sky,0.0,0.0
21,Norman Wells,CA,2020-05-08 03:33:02,65.28,-126.83,44.6,52,5,5.82,clear sky,0.0,0.0
22,Ponta Do Sol,PT,2020-05-08 03:33:03,32.67,-17.1,60.8,82,20,4.7,few clouds,0.0,0.0
23,Puerto Ayora,EC,2020-05-08 03:33:03,-0.74,-90.35,77.0,94,23,1.01,few clouds,0.0,0.0
24,Ribeira Grande,PT,2020-05-08 03:33:03,38.52,-28.7,61.39,71,52,22.06,broken clouds,0.0,0.0
25,Severo-Kurilsk,RU,2020-05-08 03:33:03,50.68,156.12,35.85,83,100,14.58,overcast clouds,0.0,0.0
26,Torbay,CA,2020-05-08 03:33:04,47.67,-52.73,34.0,99,90,28.86,moderate rain,3.05,3.94
27,Tasiilaq,GL,2020-05-08 03:33:04,65.61,-37.64,30.2,63,0,3.36,clear sky,0.0,0.0
28,Mehamn,NO,2020-05-08 03:33:04,71.04,27.85,35.6,92,75,23.04,shower rain,0.0,0.0
29,Bluff,NZ,2020-05-08 03:33:04,-46.6,168.33,51.87,71,98,2.68,overcast clouds,0.0,0.0
30,Road Town,VG,2020-05-08 03:31:11,18.42,-64.62,82.0,87,60,1.01,broken clouds,0.0,0.0
31,Yulara,AU,2020-05-08 03:33:04,-25.24,130.99,84.2,16,40,6.93,scattered clouds,0.0,0.0
32,Bandarbeyla,SO,2020-05-08 03:33:05,9.49,50.81,82.98,70,3,3.96,clear sky,0.0,0.0
33,Grand Gaube,MU,2020-05-08 03:33:05,-20.01,57.66,75.0,91,100,1.01,light rain,0.31,0.0
34,Hamilton,US,2020-05-08 03:33:05,39.18,-84.53,57.99,62,75,6.93,broken clouds,0.0,0.0
35,Mnichovo Hradiste,CZ,2020-05-08 03:33:05,50.53,14.97,43.0,78,100,2.77,overcast clouds,0.0,0.0
36,Albany,US,2020-05-08 03:30:07,42.6,-73.97,46.99,65,73,11.25,broken clouds,0.0,0.0
37,Rikitea,PF,2020-05-08 03:33:05,-23.12,-134.97,75.58,72,2,11.83,clear sky,0.0,0.0
38,Kibala,TD,2020-05-08 03:33:06,9.11,18.35,78.8,78,20,4.65,few clouds,0.0,0.0
39,Meulaboh,ID,2020-05-08 03:33:06,4.14,96.13,77.54,92,100,14.88,very heavy rain,18.42,0.0
40,Duldurga,RU,2020-05-08 03:33:06,50.68,113.59,61.43,30,66,11.23,broken clouds,0.0,0.0
41,Hermanus,ZA,2020-05-08 03:33:06,-34.42,19.23,55.0,95,28,7.87,scattered clouds,0.0,0.0
42,Okhotsk,RU,2020-05-08 03:33:07,59.38,143.3,38.98,69,45,8.37,scattered clouds,0.0,0.0
43,Agadir,MA,2020-05-08 03:29:34,30.42,-9.6,64.4,82,20,5.32,few clouds,0.0,0.0
44,Isangel,VU,2020-05-08 03:33:07,-19.55,169.27,80.6,74,20,5.82,few clouds,0.0,0.0
45,Hilo,US,2020-05-08 03:33:07,19.73,-155.09,80.6,57,1,11.41,clear sky,0.0,0.0
46,Upernavik,GL,2020-05-08 03:33:07,72.79,-56.15,16.09,92,16,6.04,few clouds,0.0,0.0
47,New Norfolk,AU,2020-05-08 03:33:07,-42.78,147.06,64.0,69,99,3.0,overcast clouds,0.0,0.0
48,Havre-Saint-Pierre,CA,2020-05-08 03:33:07,50.23,-63.6,35.6,90,90,2.24,overcast clouds,0.0,0.0
49,Maraba,BR,2020-05-08 03:33:08,-5.37,-49.12,78.8,100,99,1.66,light rain,0.12,0.0
50,Zaraza,VE,2020-05-08 03:33:08,9.35,-65.32,76.93,78,96,3.67,overcast clouds,0.0,0.0
51,Gamba,GA,2020-05-08 03:33:08,-2.65,10.0,77.49,90,21,3.22,few clouds,0.0,0.0
52,Mikumi,TZ,2020-05-08 03:33:08,-7.4,36.98,66.22,92,46,3.18,scattered clouds,0.0,0.0
53,Gizo,SB,2020-05-08 03:33:08,-8.1,156.84,83.73,77,73,8.77,broken clouds,0.0,0.0
54,Punta Arenas,CL,2020-05-08 03:29:53,-53.15,-70.92,41.0,100,90,5.19,fog,0.0,0.0
55,Georgetown,MY,2020-05-08 03:33:09,5.41,100.34,89.6,75,40,4.7,scattered clouds,0.0,0.0
56,Vakhrushev,RU,2020-05-08 03:33:09,48.98,142.97,49.53,55,27,6.76,scattered clouds,0.0,0.0
57,Bhera,PK,2020-05-08 03:33:09,32.48,72.91,92.39,20,14,4.65,few clouds,0.0,0.0
58,Srednekolymsk,RU,2020-05-08 03:33:09,67.45,153.68,34.27,91,68,8.97,broken clouds,0.0,0.0
59,Sinnamary,GF,2020-05-08 03:33:09,5.38,-52.95,78.17,83,99,10.29,overcast clouds,0.0,0.0
60,Sola,VU,2020-05-08 03:33:09,-13.88,167.55,86.0,74,40,11.41,scattered clouds,0.0,0.0
61,Gunjur,GM,2020-05-08 03:33:10,13.2,-16.73,71.6,88,92,11.41,overcast clouds,0.0,0.0
62,Nyurba,RU,2020-05-08 03:33:10,63.28,118.33,33.39,74,100,13.47,overcast clouds,0.0,0.0
63,Murovani Kurylivtsi,UA,2020-05-08 03:33:10,48.72,27.52,43.0,89,95,1.01,overcast clouds,0.0,0.0
64,Lasa,IT,2020-05-08 03:33:10,46.62,10.7,46.99,81,100,2.51,overcast clouds,0.0,0.0
65,Arraial Do Cabo,BR,2020-05-08 03:33:10,-22.97,-42.03,70.18,72,68,11.48,light rain,0.91,0.0
66,Qaanaaq,GL,2020-05-08 03:33:11,77.48,-69.36,13.06,92,100,3.42,light snow,0.0,0.15
67,Puerto Penasco,MX,2020-05-08 03:33:11,31.32,-113.53,79.0,72,90,1.99,overcast clouds,0.0,0.0
68,Vaini,TO,2020-05-08 03:33:11,-21.2,-175.2,80.6,88,75,8.05,broken clouds,0.0,0.0
69,Forestville,US,2020-05-08 03:33:11,38.85,-76.88,60.01,50,1,6.93,clear sky,0.0,0.0
70,Yellowknife,CA,2020-05-08 03:33:11,62.46,-114.35,48.2,88,20,4.7,few clouds,0.0,0.0
71,Kodiak,US,2020-05-08 03:33:11,57.79,-152.41,44.6,87,90,24.16,moderate rain,1.78,0.0
72,Bengkulu,ID,2020-05-08 03:33:12,-3.8,102.27,84.06,72,73,10.38,broken clouds,0.0,0.0
73,Kapaa,US,2020-05-08 03:33:12,22.08,-159.32,77.0,65,75,19.46,broken clouds,0.0,0.0
74,Keflavik,IS,2020-05-08 03:33:12,64.0,-22.56,39.2,79,75,17.22,broken clouds,0.0,0.0
75,Castro,BR,2020-05-08 03:29:43,-24.79,-50.01,45.21,93,0,5.23,clear sky,0.0,0.0
76,Sheksna,RU,2020-05-08 03:33:13,59.21,38.51,43.86,90,84,7.38,broken clouds,0.0,0.0
77,Terrace,CA,2020-05-08 03:33:13,54.52,-128.6,60.8,61,90,5.82,overcast clouds,0.0,0.0
78,Kahului,US,2020-05-08 03:33:13,20.89,-156.47,78.8,65,40,17.22,scattered clouds,0.0,0.0
79,Oranjemund,NA,2020-05-08 03:33:13,-28.55,16.43,62.42,49,96,6.11,overcast clouds,0.0,0.0
80,Vestmannaeyjar,IS,2020-05-08 03:33:13,63.44,-20.27,41.76,67,50,13.51,scattered clouds,0.0,0.0
81,Eyl,SO,2020-05-08 03:33:13,7.98,49.82,84.0,67,31,3.78,scattered clouds,0.0,0.0
82,Butaritari,KI,2020-05-08 03:33:14,3.07,172.79,84.02,75,19,9.44,few clouds,0.0,0.0
83,Banjar,ID,2020-05-08 03:33:14,-8.19,114.97,87.8,89,20,11.41,few clouds,0.0,0.0
84,Manado,ID,2020-05-08 03:33:14,1.49,124.85,91.4,63,40,3.36,scattered clouds,0.0,0.0
85,Warmbad,NA,2020-05-08 03:33:14,-28.45,18.73,67.35,24,90,6.38,overcast clouds,0.0,0.0
86,Ilulissat,GL,2020-05-08 03:33:14,69.22,-51.1,26.6,68,0,3.36,clear sky,0.0,0.0
87,Nome,US,2020-05-08 03:33:14,64.5,-165.41,53.6,37,40,16.11,scattered clouds,0.0,0.0
88,Acarau,BR,2020-05-08 03:33:15,-2.89,-40.12,77.31,87,0,6.29,clear sky,0.0,0.0
89,Barrow,US,2020-05-08 03:33:15,71.29,-156.79,15.8,78,90,16.11,overcast clouds,0.0,0.0
90,Carutapera,BR,2020-05-08 03:33:15,-1.2,-46.02,76.68,93,76,5.08,light rain,0.62,0.0
91,Kangasala,FI,2020-05-08 03:33:16,61.46,24.08,37.0,76,0,4.7,clear sky,0.0,0.0
92,Camacha,PT,2020-05-08 03:33:16,33.08,-16.33,60.8,82,20,1.12,few clouds,0.0,0.0
93,Adrar,MR,2020-05-08 03:33:16,20.5,-10.07,88.05,14,92,17.4,overcast clouds,0.0,0.0
94,Oranjestad,AW,2020-05-08 03:31:37,12.52,-70.03,82.4,78,75,24.16,broken clouds,0.0,0.0
95,Iida,JP,2020-05-08 03:33:16,35.52,137.82,71.1,36,0,6.82,clear sky,0.0,0.0
96,Saint-Philippe,RE,2020-05-08 03:33:16,-21.36,55.77,75.2,73,100,6.93,overcast clouds,0.0,0.0
97,Rundu,NA,2020-05-08 03:33:16,-17.93,19.77,55.11,43,0,6.4,clear sky,0.0,0.0
98,Manzanillo,CU,2020-05-08 03:33:17,20.34,-77.12,76.51,84,23,6.06,light rain,0.17,0.0
99,Avarua,CK,2020-05-08 03:33:17,-21.21,-159.78,82.4,74,6,8.05,clear sky,0.0,0.0
100,Lewiston,US,2020-05-08 03:33:17,44.1,-70.21,44.6,65,20,5.82,few clouds,0.0,0.0
101,Rockingham,US,2020-05-08 03:33:17,42.97,-71.1,53.01,49,78,4.0,broken clouds,0.0,0.0
102,Antigonish,CA,2020-05-08 03:33:17,45.62,-62.0,34.0,92,92,1.99,overcast clouds,0.0,0.0
103,Vao,NC,2020-05-08 03:33:17,-22.67,167.48,73.0,78,85,29.46,light rain,0.22,0.0
104,Henties Bay,NA,2020-05-08 03:33:18,-22.12,14.28,71.2,36,0,4.03,clear sky,0.0,0.0
105,Luganville,VU,2020-05-08 03:33:18,-15.53,167.17,82.4,61,20,9.17,few clouds,0.0,0.0
106,Palimbang,PH,2020-05-08 03:33:18,6.21,124.19,86.2,72,46,5.57,light rain,0.42,0.0
107,Baruun-Urt,MN,2020-05-08 03:33:18,46.68,113.28,60.96,29,100,14.97,overcast clouds,0.0,0.0
108,Hithadhoo,MV,2020-05-08 03:33:18,-0.6,73.08,84.67,79,89,14.54,overcast clouds,0.0,0.0
109,Cherskiy,RU,2020-05-08 03:33:18,68.75,161.3,36.05,84,1,1.21,clear sky,0.0,0.0
110,Kununurra,AU,2020-05-08 03:33:19,-15.77,128.73,91.4,22,57,10.29,broken clouds,0.0,0.0
111,Caravelas,BR,2020-05-08 03:33:19,-17.71,-39.25,72.46,92,100,13.71,light rain,0.53,0.0
112,Tessalit,ML,2020-05-08 03:33:19,20.2,1.01,83.14,13,0,14.54,clear sky,0.0,0.0
113,East London,ZA,2020-05-08 03:33:19,-33.02,27.91,59.0,93,88,4.7,overcast clouds,0.0,0.0
114,Hobart,AU,2020-05-08 03:33:19,-42.88,147.33,64.0,45,75,11.41,broken clouds,0.0,0.0
115,Luderitz,NA,2020-05-08 03:33:20,-26.65,15.16,55.4,87,53,8.05,broken clouds,0.0,0.0
116,Tromso,NO,2020-05-08 03:33:20,69.65,18.96,30.2,100,90,12.75,snow,0.0,0.0
117,Saldanha,ZA,2020-05-08 03:33:20,-33.01,17.94,53.6,87,6,4.7,clear sky,0.0,0.0
118,Deputatskiy,RU,2020-05-08 03:33:20,69.3,139.9,25.05,99,100,13.47,light snow,0.0,0.12
119,Pisco,PE,2020-05-08 03:33:20,-13.7,-76.22,68.0,77,100,2.24,overcast clouds,0.0,0.0
120,Lebu,CL,2020-05-08 03:33:20,-37.62,-73.65,56.97,84,100,5.1,overcast clouds,0.0,0.0
121,Chase,CA,2020-05-08 03:33:21,50.82,-119.69,60.8,61,20,9.17,few clouds,0.0,0.0
122,Pitsunda,GE,2020-05-08 03:33:21,43.16,40.34,53.6,93,90,6.71,light intensity shower rain,0.0,0.0
123,Weihe,CN,2020-05-08 03:33:21,33.0,105.32,63.3,49,55,7.92,broken clouds,0.0,0.0
124,Bulgan,MN,2020-05-08 03:33:21,48.81,103.53,52.84,42,99,13.27,overcast clouds,0.0,0.0
125,Port Blair,IN,2020-05-08 03:33:21,11.67,92.75,86.0,79,75,4.7,broken clouds,0.0,0.0
126,Ballina,AU,2020-05-08 03:31:00,-28.87,153.57,80.01,73,75,10.29,broken clouds,0.0,0.0
127,Clyde River,CA,2020-05-08 03:33:22,70.47,-68.59,5.0,92,1,2.24,clear sky,0.0,0.0
128,Touros,BR,2020-05-08 03:33:22,-5.2,-35.46,75.2,94,20,3.36,few clouds,0.0,0.0
129,Natal,BR,2020-05-08 03:32:35,-5.79,-35.21,75.2,94,20,3.36,few clouds,0.0,0.0
130,Cape Town,ZA,2020-05-08 03:28:25,-33.93,18.42,63.0,93,12,3.36,few clouds,0.0,0.0
131,Komsomolskiy,UZ,2020-05-08 03:33:22,40.43,71.72,73.4,38,97,6.93,overcast clouds,0.0,0.0
132,Constitucion,CL,2020-05-08 03:33:22,-35.33,-72.42,60.58,46,100,2.75,overcast clouds,0.0,0.0
133,Longyearbyen,SJ,2020-05-08 03:33:23,78.22,15.64,23.36,91,85,4.97,overcast clouds,0.0,0.0
134,Udachnyy,RU,2020-05-08 03:33:23,66.42,112.4,21.2,57,87,8.95,overcast clouds,0.0,0.0
135,Namie,JP,2020-05-08 03:33:23,37.48,141.0,72.0,19,0,1.99,clear sky,0.0,0.0
136,Cabo San Lucas,MX,2020-05-08 03:33:23,22.89,-109.91,86.0,22,5,12.73,clear sky,0.0,0.0
137,Oeiras,BR,2020-05-08 03:33:23,-7.03,-42.13,73.26,91,100,2.21,overcast clouds,0.0,0.0
138,Channel-Port Aux Basques,CA,2020-05-08 03:33:23,47.57,-59.14,32.94,96,100,3.65,snow,0.0,0.6
139,Port Hedland,AU,2020-05-08 03:33:24,-20.32,118.57,87.8,29,15,10.29,few clouds,0.0,0.0
140,Mersing,MY,2020-05-08 03:33:24,2.43,103.84,82.4,88,40,6.93,scattered clouds,0.0,0.0
141,Magdalena,PH,2020-05-08 03:33:24,14.2,121.43,95.0,53,20,8.05,few clouds,0.0,0.0
142,Chokurdakh,RU,2020-05-08 03:33:24,70.63,147.92,28.27,96,24,8.66,few clouds,0.0,0.0
143,Kruisfontein,ZA,2020-05-08 03:33:24,-34.0,24.73,58.46,65,98,7.05,overcast clouds,0.0,0.0
144,Namatanai,PG,2020-05-08 03:33:25,-3.67,152.43,85.73,65,54,7.65,broken clouds,0.0,0.0
145,Orlik,RU,2020-05-08 03:33:25,52.52,99.83,38.62,62,97,10.11,overcast clouds,0.0,0.0
146,Kavaratti,IN,2020-05-08 03:33:25,10.57,72.64,87.8,70,20,4.7,few clouds,0.0,0.0
147,Mount Isa,AU,2020-05-08 03:33:25,-20.73,139.5,86.0,23,44,6.93,scattered clouds,0.0,0.0
148,Ingham,US,2020-05-08 03:33:25,42.6,-84.38,42.01,60,1,3.98,clear sky,0.0,0.0
149,San Cristobal,VE,2020-05-08 03:33:25,7.77,-72.22,68.47,87,95,3.78,overcast clouds,0.0,0.0
150,Alofi,NU,2020-05-08 03:33:26,-19.06,-169.92,82.4,78,75,8.05,broken clouds,0.0,0.0
151,Ambon,ID,2020-05-08 03:33:26,-3.7,128.18,87.8,70,40,2.24,scattered clouds,0.0,0.0
152,Aklavik,CA,2020-05-08 03:33:26,68.22,-135.01,35.6,64,5,12.75,clear sky,0.0,0.0
153,Svetlaya,RU,2020-05-08 03:33:26,46.54,138.33,60.84,37,92,15.35,overcast clouds,0.0,0.0
154,Majene,ID,2020-05-08 03:33:26,-3.54,118.97,86.59,69,20,5.48,few clouds,0.0,0.0
155,Parabel,RU,2020-05-08 03:33:26,58.7,81.48,61.65,51,47,5.73,scattered clouds,0.0,0.0
156,Wakkanai,JP,2020-05-08 03:33:27,45.41,141.67,59.0,58,75,28.86,broken clouds,0.0,0.0
157,Acajutla,SV,2020-05-08 03:31:48,13.59,-89.83,77.0,89,77,2.1,moderate rain,2.63,0.0
158,Sao Jose Da Coroa Grande,BR,2020-05-08 03:33:27,-8.9,-35.15,77.49,82,93,4.25,overcast clouds,0.0,0.0
159,Inhambane,MZ,2020-05-08 03:33:27,-23.86,35.38,68.29,81,0,7.9,clear sky,0.0,0.0
160,Codrington,AU,2020-05-08 03:33:27,-38.27,141.97,62.13,63,33,13.13,scattered clouds,0.0,0.0
161,Sao Francisco Do Sul,BR,2020-05-08 03:33:28,-26.24,-48.64,55.99,84,80,4.38,light rain,0.3,0.0
162,Asau,RO,2020-05-08 03:33:28,46.43,26.4,42.01,78,22,5.23,few clouds,0.0,0.0
163,Bereda,ES,2020-05-08 03:33:28,43.27,-7.54,54.0,100,49,1.01,scattered clouds,0.0,0.0
164,Ust-Kuyga,RU,2020-05-08 03:33:28,70.02,135.6,25.27,95,98,15.41,overcast clouds,0.0,0.0
165,Grindavik,IS,2020-05-08 03:33:28,63.84,-22.43,37.4,78,75,17.22,broken clouds,0.0,0.0
166,Boa Esperanca,BR,2020-05-08 03:33:28,-21.09,-45.57,58.51,88,100,3.69,overcast clouds,0.0,0.0
167,Lompoc,US,2020-05-08 03:33:28,34.64,-120.46,64.99,82,1,4.7,clear sky,0.0,0.0
168,Iqaluit,CA,2020-05-08 03:30:42,63.75,-68.51,28.4,50,75,5.82,broken clouds,0.0,0.0
169,Andreiasu De Jos,RO,2020-05-08 03:33:29,45.75,26.83,46.4,70,40,6.93,scattered clouds,0.0,0.0
170,Harper,LR,2020-05-08 03:33:29,4.38,-7.72,79.84,85,100,5.32,overcast clouds,0.0,0.0
171,Bathsheba,BB,2020-05-08 03:33:29,13.22,-59.52,80.6,78,40,19.46,scattered clouds,0.0,0.0
172,Chuy,UY,2020-05-08 03:33:29,-33.7,-53.46,48.61,82,23,5.48,few clouds,0.0,0.0
173,Tiszaroff,HU,2020-05-08 03:33:30,47.4,20.45,41.0,80,0,2.24,clear sky,0.0,0.0
174,Griffith,US,2020-05-08 03:33:23,41.53,-87.42,46.99,52,1,2.33,clear sky,0.0,0.0
175,Necochea,AR,2020-05-08 03:31:58,-38.55,-58.74,48.0,84,68,5.99,broken clouds,0.0,0.0
176,Alice Springs,AU,2020-05-08 03:30:10,-23.7,133.88,86.0,14,0,14.99,clear sky,0.0,0.0
177,Broken Hill,AU,2020-05-08 03:33:30,-31.95,141.43,68.0,40,0,8.05,clear sky,0.0,0.0
178,Pahrump,US,2020-05-08 03:33:30,36.21,-115.98,82.0,10,2,1.01,clear sky,0.0,0.0
179,Madona,LV,2020-05-08 03:33:31,56.85,26.22,37.11,80,0,5.41,clear sky,0.0,0.0
180,Dikson,RU,2020-05-08 03:33:31,73.51,80.55,24.58,98,100,25.66,snow,0.0,0.75
181,Westport,US,2020-05-08 03:33:31,41.14,-73.36,55.99,71,90,4.7,overcast clouds,0.0,0.0
182,Tuktoyaktuk,CA,2020-05-08 03:33:31,69.45,-133.04,17.6,85,40,11.41,scattered clouds,0.0,0.0
183,Hualmay,PE,2020-05-08 03:33:31,-11.1,-77.61,69.31,77,83,6.22,broken clouds,0.0,0.0
184,Bredasdorp,ZA,2020-05-08 03:33:31,-34.53,20.04,59.0,87,71,1.12,broken clouds,0.0,0.0
185,Kavieng,PG,2020-05-08 03:33:32,-2.57,150.8,85.44,67,2,8.77,clear sky,0.0,0.0
186,Kochki,RU,2020-05-08 03:33:32,54.34,80.48,64.09,50,0,7.25,clear sky,0.0,0.0
187,Marsa Matruh,EG,2020-05-08 03:33:32,31.35,27.25,71.6,18,99,10.29,overcast clouds,0.0,0.0
188,Bayan,CN,2020-05-08 03:33:32,46.08,127.4,71.01,32,100,8.16,overcast clouds,0.0,0.0
189,Hofn,IS,2020-05-08 03:33:32,64.25,-15.21,36.03,77,32,15.95,scattered clouds,0.0,0.0
190,Ust-Ilimsk,RU,2020-05-08 03:33:32,58.0,102.66,48.13,52,57,9.66,broken clouds,0.0,0.0
191,Kidal,ML,2020-05-08 03:33:33,18.44,1.41,79.84,13,0,8.41,clear sky,0.0,0.0
192,Laguna De Perlas,NI,2020-05-08 03:33:33,12.34,-83.67,80.8,82,89,11.05,overcast clouds,0.0,0.0
193,Provideniya,RU,2020-05-08 03:33:33,64.38,-173.3,35.6,59,86,15.66,overcast clouds,0.0,0.0
194,Bitung,ID,2020-05-08 03:33:33,1.45,125.18,91.4,63,40,3.36,scattered clouds,0.0,0.0
195,Leshukonskoye,RU,2020-05-08 03:33:33,64.9,45.76,38.26,92,100,3.2,overcast clouds,0.0,0.0
196,Ponta Delgada,PT,2020-05-08 03:32:30,37.73,-25.67,62.6,88,75,13.87,broken clouds,0.0,0.0
197,Kapiri Mposhi,ZM,2020-05-08 03:33:34,-13.97,28.68,57.51,71,83,9.15,broken clouds,0.0,0.0
198,The Pas,CA,2020-05-08 03:33:34,53.83,-101.25,37.4,40,1,5.82,clear sky,0.0,0.0
199,Airai,TL,2020-05-08 03:33:34,-8.93,125.41,73.02,67,3,4.65,clear sky,0.0,0.0
200,Plouzane,FR,2020-05-08 03:33:34,48.38,-4.62,57.2,93,92,2.24,overcast clouds,0.0,0.0
201,Tura,IN,2020-05-08 03:33:34,25.52,90.22,88.39,37,0,6.76,clear sky,0.0,0.0
202,Capreol,CA,2020-05-08 03:33:35,46.71,-80.92,30.99,100,90,8.05,light snow,0.0,0.0
203,Iracoubo,GF,2020-05-08 03:33:35,5.48,-53.2,78.53,82,100,10.78,overcast clouds,0.0,0.0
204,Berlevag,NO,2020-05-08 03:33:35,70.86,29.09,35.6,87,75,23.04,shower rain,0.0,0.0
205,Oktyabrskiy,RU,2020-05-08 03:33:35,54.48,53.47,63.88,46,27,12.35,scattered clouds,0.0,0.0
206,Sao Filipe,CV,2020-05-08 03:33:35,14.9,-24.5,72.7,77,31,10.67,scattered clouds,0.0,0.0
207,Oxbow,CA,2020-05-08 03:33:35,49.23,-102.17,42.8,38,1,9.17,clear sky,0.0,0.0
208,Kutum,SD,2020-05-08 03:33:36,14.2,24.67,66.54,24,76,4.47,broken clouds,0.0,0.0
209,Tarm,DK,2020-05-08 03:33:36,55.91,8.53,39.0,86,0,8.05,clear sky,0.0,0.0
210,Gorom-Gorom,BF,2020-05-08 03:33:36,14.44,-0.24,78.96,13,66,3.96,broken clouds,0.0,0.0
211,Rawson,AR,2020-05-08 03:30:34,-43.3,-65.1,65.75,44,100,13.98,overcast clouds,0.0,0.0
212,Hukuntsi,BW,2020-05-08 03:33:36,-24.0,21.75,56.32,55,0,8.97,clear sky,0.0,0.0
213,Sobolevo,RU,2020-05-08 03:33:36,54.43,31.9,38.88,84,0,10.92,clear sky,0.0,0.0
214,Trairi,BR,2020-05-08 03:33:37,-3.28,-39.27,75.61,91,0,4.94,clear sky,0.0,0.0
215,Lorengau,PG,2020-05-08 03:33:37,-2.02,147.27,84.65,74,20,3.85,light rain,0.5,0.0
216,Bethel,US,2020-05-08 03:33:37,41.37,-73.41,55.4,37,90,3.36,overcast clouds,0.0,0.0
217,Bonthe,SL,2020-05-08 03:33:37,7.53,-12.51,79.3,90,96,4.74,overcast clouds,0.0,0.0
218,Along,IN,2020-05-08 03:33:37,28.17,94.77,84.94,43,1,1.77,clear sky,0.0,0.0
219,Guangyuan,CN,2020-05-08 03:33:37,32.44,105.82,66.0,55,53,14.0,broken clouds,0.0,0.0
220,Galesong,ID,2020-05-08 03:33:37,-5.32,119.37,89.6,70,20,2.24,few clouds,0.0,0.0
221,Altamira,BR,2020-05-08 03:33:38,-3.2,-52.21,73.11,97,100,2.1,moderate rain,1.49,0.0
222,Aykhal,RU,2020-05-08 03:33:38,66.0,111.5,21.2,57,92,8.95,overcast clouds,0.0,0.0
223,Haines Junction,CA,2020-05-08 03:33:38,60.75,-137.51,47.46,53,100,3.78,overcast clouds,0.0,0.0
224,Glamoc,BA,2020-05-08 03:32:02,44.05,16.85,41.61,68,0,2.91,clear sky,0.0,0.0
225,Campoverde,PE,2020-05-08 03:33:38,-8.48,-74.81,68.0,88,90,8.05,overcast clouds,0.0,0.0
226,Shimoda,JP,2020-05-08 03:33:39,34.67,138.95,66.2,42,6,9.17,clear sky,0.0,0.0
227,Nikolskoye,RU,2020-05-08 03:33:39,59.7,30.79,37.4,93,0,4.47,clear sky,0.0,0.0
228,Sioux Lookout,CA,2020-05-08 03:33:03,50.1,-91.92,24.8,49,20,4.7,few clouds,0.0,0.0
229,Buenos Aires,AR,2020-05-08 03:33:37,-34.61,-58.38,57.0,66,28,5.82,scattered clouds,0.0,0.0
230,Conceicao Do Araguaia,BR,2020-05-08 03:33:39,-8.26,-49.26,78.8,88,100,5.82,overcast clouds,0.0,0.0
231,Hays,US,2020-05-08 03:33:39,30.05,-98.03,77.0,82,84,3.0,broken clouds,0.0,0.0
232,Fukue,JP,2020-05-08 03:33:40,32.69,128.84,71.6,64,75,13.87,broken clouds,0.0,0.0
233,Diebougou,BF,2020-05-08 03:33:40,10.97,-3.25,81.55,58,73,4.14,broken clouds,0.0,0.0
234,Saint Anthony,US,2020-05-08 03:33:40,45.02,-93.22,50.0,23,1,12.75,clear sky,0.0,0.0
235,Auki,SB,2020-05-08 03:33:40,-8.77,160.7,83.14,79,91,4.85,light rain,0.5,0.0
236,Port Elizabeth,ZA,2020-05-08 03:33:40,-33.92,25.57,60.8,82,100,16.11,overcast clouds,0.0,0.0
237,Tateyama,JP,2020-05-08 03:33:40,34.98,139.87,69.01,42,15,9.17,few clouds,0.0,0.0
238,Pangnirtung,CA,2020-05-08 03:33:41,66.15,-65.71,19.85,84,58,2.84,broken clouds,0.0,0.0
239,Kamenka,RU,2020-05-08 03:33:41,51.32,42.77,57.0,89,100,5.99,overcast clouds,0.0,0.0
240,Umm Kaddadah,SD,2020-05-08 03:33:41,13.6,26.69,78.94,16,95,15.12,overcast clouds,0.0,0.0
241,Kharp,RU,2020-05-08 03:33:41,66.8,65.81,41.67,95,100,6.69,overcast clouds,0.0,0.0
242,Portland,US,2020-05-08 03:30:54,45.52,-122.68,69.01,29,37,3.0,scattered clouds,0.0,0.0
243,Thompson,CA,2020-05-08 03:32:04,55.74,-97.86,28.4,68,75,8.05,broken clouds,0.0,0.0
244,Taoudenni,ML,2020-05-08 03:33:42,22.68,-3.98,97.54,17,94,16.73,overcast clouds,0.0,0.0
245,Puerto Suarez,BO,2020-05-08 03:33:42,-18.95,-57.8,54.66,57,64,3.76,broken clouds,0.0,0.0
246,Port Macquarie,AU,2020-05-08 03:33:42,-31.43,152.92,75.99,43,0,1.01,clear sky,0.0,0.0
247,Kargil,IN,2020-05-08 03:33:42,34.57,76.1,40.44,57,31,0.94,scattered clouds,0.0,0.0
248,Fukumitsu,JP,2020-05-08 03:33:42,36.55,136.87,69.01,39,0,9.17,clear sky,0.0,0.0
249,Pevek,RU,2020-05-08 03:33:42,69.7,170.31,33.44,89,25,1.88,scattered clouds,0.0,0.0
250,Mancora,PE,2020-05-08 03:33:42,-4.11,-81.05,78.94,63,48,10.2,scattered clouds,0.0,0.0
251,Bowen,AU,2020-05-08 03:33:43,-20.02,148.23,82.0,57,90,13.87,overcast clouds,0.0,0.0
252,Ukiah,US,2020-05-08 03:30:58,39.15,-123.21,78.8,21,1,3.42,clear sky,0.0,0.0
253,Victoria,HK,2020-05-08 03:30:29,22.29,114.16,87.01,70,93,11.01,overcast clouds,0.0,0.0
254,Turukhansk,RU,2020-05-08 03:33:43,65.82,87.98,40.14,72,90,15.26,overcast clouds,0.0,0.0
255,Chapais,CA,2020-05-08 03:33:43,49.78,-74.85,24.8,73,75,10.29,broken clouds,0.0,0.0
256,Mandalgovi,MN,2020-05-08 03:33:43,45.76,106.27,55.71,36,71,12.82,light rain,0.32,0.0
257,Azare,NG,2020-05-08 03:33:44,11.68,10.19,76.46,26,46,2.55,scattered clouds,0.0,0.0
258,Daru,PG,2020-05-08 03:33:44,-9.08,143.21,82.94,71,90,14.29,overcast clouds,0.0,0.0
259,Longhua,CN,2020-05-08 03:33:44,23.61,114.19,90.45,57,96,6.29,overcast clouds,0.0,0.0
260,Korla,CN,2020-05-08 03:33:44,41.76,86.15,67.14,22,60,11.16,broken clouds,0.0,0.0
261,Tuatapere,NZ,2020-05-08 03:33:44,-46.13,167.68,52.52,82,92,1.74,overcast clouds,0.0,0.0
262,Qiryat Gat,IL,2020-05-08 03:33:00,31.61,34.76,63.0,85,0,3.36,clear sky,0.0,0.0
263,Forio,IT,2020-05-08 03:33:45,40.73,13.86,60.01,71,0,1.99,clear sky,0.0,0.0
264,Cockburn Town,TC,2020-05-08 03:33:45,21.46,-71.14,80.8,81,48,8.55,light rain,0.94,0.0
265,Chengde,CN,2020-05-08 03:33:45,40.97,117.94,56.23,80,100,5.97,overcast clouds,0.0,0.0
266,Zlobin,HR,2020-05-08 03:33:45,45.29,14.65,46.99,83,30,5.01,scattered clouds,0.0,0.0
267,Mar Del Plata,AR,2020-05-08 03:32:31,-38.0,-57.56,51.01,93,43,8.05,scattered clouds,0.0,0.0
268,Puerto Escondido,MX,2020-05-08 03:33:46,15.85,-97.07,82.85,68,28,4.43,scattered clouds,0.0,0.0
269,Darhan,MN,2020-05-08 03:33:46,49.49,105.92,55.56,39,100,12.21,overcast clouds,0.0,0.0
270,Madang,PG,2020-05-08 03:33:46,-5.22,145.8,83.82,80,100,6.13,light rain,0.96,0.0
271,Mahanoro,MG,2020-05-08 03:33:46,-19.9,48.8,72.18,91,82,8.1,broken clouds,0.0,0.0
272,Magistralnyy,RU,2020-05-08 03:33:46,56.17,107.45,38.39,90,100,6.55,light rain,0.55,0.0
273,Richards Bay,ZA,2020-05-08 03:33:46,-28.78,32.04,63.09,91,0,6.38,clear sky,0.0,0.0
274,Kaya,BF,2020-05-08 03:33:47,13.09,-1.08,84.92,22,46,0.43,scattered clouds,0.0,0.0
275,Biaora,IN,2020-05-08 03:33:47,23.87,76.92,97.9,11,0,3.65,clear sky,0.0,0.0
276,College,US,2020-05-08 03:33:47,64.86,-147.8,68.0,22,75,4.7,broken clouds,0.0,0.0
277,Berbera,SO,2020-05-08 03:33:47,10.44,45.01,88.36,65,71,5.88,broken clouds,0.0,0.0
278,Gigmoto,PH,2020-05-08 03:33:47,13.78,124.39,87.67,60,74,4.36,broken clouds,0.0,0.0
279,Yar-Sale,RU,2020-05-08 03:33:47,66.83,70.83,40.33,99,99,16.4,overcast clouds,0.0,0.0
280,Lagoa,PT,2020-05-08 03:33:48,39.05,-27.98,61.0,70,10,25.48,clear sky,0.0,0.0
281,Olesnica,PL,2020-05-08 03:33:48,51.21,17.39,39.0,100,74,3.36,fog,0.0,0.0
282,Tiksi,RU,2020-05-08 03:33:48,71.69,128.87,18.23,95,100,16.04,overcast clouds,0.0,0.0
283,Mongoumba,CF,2020-05-08 03:33:48,3.64,18.59,70.16,98,100,3.15,moderate rain,3.94,0.0
284,Ostersund,SE,2020-05-08 03:33:48,63.18,14.64,37.4,55,100,8.05,overcast clouds,0.0,0.0
285,Kamaishi,JP,2020-05-08 03:33:49,39.27,141.88,69.8,30,20,4.7,few clouds,0.0,0.0
286,Yarim,YE,2020-05-08 03:33:49,14.3,44.38,60.48,58,30,5.1,scattered clouds,0.0,0.0
287,Halifax,CA,2020-05-08 03:29:39,44.65,-63.57,34.0,76,20,5.93,few clouds,0.0,0.0
288,San Carlos De Bariloche,AR,2020-05-08 03:33:49,-41.15,-71.31,48.0,100,75,3.76,fog,0.0,0.0
289,Changde,CN,2020-05-08 03:33:20,29.05,111.68,67.37,88,100,10.51,light rain,0.12,0.0
290,Makakilo City,US,2020-05-08 03:33:49,21.35,-158.09,80.6,88,90,12.75,moderate rain,3.56,0.0
291,Paraiso,CR,2020-05-08 03:33:50,9.84,-83.87,71.6,88,75,3.36,broken clouds,0.0,0.0
292,Mayo,US,2020-05-08 03:33:50,38.89,-76.51,59.0,47,1,4.7,clear sky,0.0,0.0
293,Inongo,CD,2020-05-08 03:33:50,-1.95,18.27,72.18,96,100,7.07,moderate rain,3.46,0.0
294,Zyryanka,RU,2020-05-08 03:33:50,65.75,150.85,35.55,90,12,8.61,few clouds,0.0,0.0
295,Winnemucca,US,2020-05-08 03:33:50,40.97,-117.74,64.4,10,1,10.29,clear sky,0.0,0.0
296,Matara,LK,2020-05-08 03:33:50,5.95,80.54,84.07,74,99,4.68,overcast clouds,0.0,0.0
297,Half Moon Bay,US,2020-05-08 03:33:47,37.46,-122.43,75.2,27,5,10.29,clear sky,0.0,0.0
298,San Nicolas,PH,2020-05-08 03:33:51,18.17,120.6,89.6,75,20,9.17,few clouds,0.0,0.0
299,Nouadhibou,MR,2020-05-08 03:31:31,20.93,-17.03,64.4,82,0,21.92,clear sky,0.0,0.0
300,Sikasso,ML,2020-05-08 03:33:51,10.92,-7.0,81.86,61,39,6.04,scattered clouds,0.0,0.0
301,La Fria,VE,2020-05-08 03:33:51,8.22,-72.24,77.49,68,95,3.8,overcast clouds,0.0,0.0
302,Saint-Pierre,RE,2020-05-08 03:33:51,-21.34,55.48,75.2,73,100,6.93,overcast clouds,0.0,0.0
303,Chaiya,TH,2020-05-08 03:33:52,9.39,99.2,93.99,66,20,2.24,few clouds,0.0,0.0
304,Sao Joao Da Barra,BR,2020-05-08 03:33:52,-21.64,-41.05,65.73,91,100,12.15,overcast clouds,0.0,0.0
305,Jalu,LY,2020-05-08 03:33:52,29.03,21.55,68.04,48,0,12.75,clear sky,0.0,0.0
306,Atasu,KZ,2020-05-08 03:33:52,48.68,71.64,65.44,38,100,19.33,overcast clouds,0.0,0.0
307,Ferrol,ES,2020-05-08 03:33:52,43.48,-8.24,57.2,93,90,3.36,mist,0.0,0.0
308,Tautira,PF,2020-05-08 03:33:52,-17.73,-149.15,84.2,70,13,6.93,light rain,0.14,0.0
309,Black River,JM,2020-05-08 03:33:53,18.03,-77.85,80.01,83,20,3.36,few clouds,0.0,0.0
310,Namibe,AO,2020-05-08 03:33:53,-15.2,12.15,78.66,58,0,7.2,clear sky,0.0,0.0
311,Chirilagua,SV,2020-05-08 03:33:53,13.22,-88.14,79.65,85,100,2.93,moderate rain,1.84,0.0
312,Qaqortoq,GL,2020-05-08 03:33:53,60.72,-46.03,39.2,88,40,3.11,scattered clouds,0.0,0.0
313,Farah,AF,2020-05-08 03:33:53,32.5,62.5,80.74,19,0,4.29,clear sky,0.0,0.0
314,Juneau,US,2020-05-08 03:31:53,58.3,-134.42,57.2,44,75,4.7,broken clouds,0.0,0.0
315,Athabasca,CA,2020-05-08 03:33:34,54.72,-113.29,48.72,85,100,4.0,overcast clouds,0.0,0.0
316,Tegh,AM,2020-05-08 03:29:28,39.56,46.48,48.0,75,1,7.92,clear sky,0.0,0.0
317,Alpena,US,2020-05-08 03:33:54,45.06,-83.43,32.0,88,1,5.82,clear sky,0.0,0.0
318,Goderich,CA,2020-05-08 03:33:23,43.75,-81.72,39.0,74,0,18.25,clear sky,0.0,0.0
319,Vaitape,PF,2020-05-08 03:33:54,-16.52,-151.75,82.92,76,0,15.1,clear sky,0.0,0.0
320,Myitkyina,MM,2020-05-08 03:33:54,25.38,97.4,101.12,24,0,1.21,clear sky,0.0,0.0
321,Esperance,AU,2020-05-08 03:33:54,-33.87,121.9,53.6,93,90,17.22,overcast clouds,0.0,0.0
322,Ayan,RU,2020-05-08 03:33:55,56.45,138.17,33.93,89,100,14.88,overcast clouds,0.0,0.0
323,Nanortalik,GL,2020-05-08 03:33:55,60.14,-45.24,38.08,85,84,3.31,broken clouds,0.0,0.0
324,Kalanguy,RU,2020-05-08 03:33:55,51.02,116.52,58.55,33,40,18.16,scattered clouds,0.0,0.0
325,Dingle,PH,2020-05-08 03:33:55,11.0,122.67,94.6,46,98,7.2,overcast clouds,0.0,0.0
326,Calvinia,ZA,2020-05-08 03:33:55,-31.47,19.78,53.6,30,100,3.36,overcast clouds,0.0,0.0
327,Kstovo,RU,2020-05-08 03:33:55,56.15,44.2,57.2,93,20,4.47,few clouds,0.0,0.0
328,Brufut,GM,2020-05-08 03:33:56,13.38,-16.75,71.6,88,91,11.41,overcast clouds,0.0,0.0
329,Show Low,US,2020-05-08 03:30:15,34.25,-110.03,66.2,15,1,8.05,clear sky,0.0,0.0
330,San Borja,BO,2020-05-08 03:33:56,-14.82,-66.85,59.99,71,82,2.82,broken clouds,0.0,0.0
331,Enid,US,2020-05-08 03:30:01,36.4,-97.88,64.4,82,75,14.99,broken clouds,0.0,0.0
332,Buala,SB,2020-05-08 03:33:56,-8.14,159.59,83.88,74,69,4.12,light rain,0.14,0.0
333,Yeniseysk,RU,2020-05-08 03:33:56,58.45,92.17,47.98,56,10,7.14,clear sky,0.0,0.0
334,Sakakah,SA,2020-05-08 03:33:57,29.97,40.21,68.0,28,0,6.93,clear sky,0.0,0.0
335,Anadyr,RU,2020-05-08 03:33:57,64.75,177.48,32.0,93,40,31.32,scattered clouds,0.0,0.0
336,Flinders,AU,2020-05-08 03:33:57,-34.58,150.86,80.01,49,0,7.0,clear sky,0.0,0.0
337,Atar,MR,2020-05-08 03:33:58,20.52,-13.05,79.84,19,0,9.04,clear sky,0.0,0.0
338,Maragogi,BR,2020-05-08 03:33:58,-9.01,-35.22,77.02,84,96,3.67,overcast clouds,0.0,0.0
339,Ngaoundere,CM,2020-05-08 03:33:58,7.32,13.58,66.85,91,100,3.15,overcast clouds,0.0,0.0
340,Huilong,CN,2020-05-08 03:33:58,31.81,121.66,78.01,84,95,3.0,overcast clouds,0.0,0.0
341,Rocha,UY,2020-05-08 03:33:58,-34.48,-54.33,45.64,87,0,5.21,clear sky,0.0,0.0
342,Viedma,AR,2020-05-08 03:33:58,-40.81,-63.0,57.11,47,30,12.35,scattered clouds,0.0,0.0
343,Bambous Virieux,MU,2020-05-08 03:33:59,-20.34,57.76,75.0,94,40,4.09,scattered clouds,0.0,0.0
344,Ongandjera,NA,2020-05-08 03:33:59,-17.88,15.07,61.48,34,0,8.9,clear sky,0.0,0.0
345,Ketchikan,US,2020-05-08 03:33:59,55.34,-131.65,55.4,47,1,11.41,clear sky,0.0,0.0
346,Belen,TR,2020-05-08 03:33:59,36.49,36.22,51.8,100,75,3.36,broken clouds,0.0,0.0
347,Hami,CN,2020-05-08 03:33:59,42.8,93.45,65.32,22,0,7.09,clear sky,0.0,0.0
348,Santo Tomas,PH,2020-05-08 03:30:48,14.11,121.14,95.0,53,20,8.05,few clouds,0.0,0.0
349,Bonoua,CI,2020-05-08 03:34:00,5.27,-3.6,82.4,88,20,4.7,few clouds,0.0,0.0
350,Faanui,PF,2020-05-08 03:34:00,-16.48,-151.75,82.06,77,0,15.19,clear sky,0.0,0.0
351,Carnarvon,AU,2020-05-08 03:34:00,-24.87,113.63,72.32,39,73,21.85,broken clouds,0.0,0.0
352,Nsanje,MW,2020-05-08 03:34:00,-16.92,35.26,64.62,95,83,2.8,broken clouds,0.0,0.0
353,Narsaq,GL,2020-05-08 03:34:00,60.92,-46.05,39.2,84,76,3.29,broken clouds,0.0,0.0
354,Virovitica,HR,2020-05-08 03:34:00,45.83,17.38,43.0,86,0,1.95,clear sky,0.0,0.0
355,Rio Gallegos,AR,2020-05-08 03:34:00,-51.62,-69.22,48.2,87,100,4.7,overcast clouds,0.0,0.0
356,Belle Fourche,US,2020-05-08 03:33:51,44.67,-103.85,37.0,100,75,6.93,broken clouds,0.0,0.0
357,Askiz,RU,2020-05-08 03:34:01,53.13,90.53,50.23,53,100,6.02,overcast clouds,0.0,0.0
358,Nishihara,JP,2020-05-08 03:34:01,26.18,127.76,75.2,88,90,16.11,overcast clouds,0.0,0.0
359,Karavukovo,RS,2020-05-08 03:34:01,45.49,19.19,42.8,81,0,4.7,clear sky,0.0,0.0
360,Lavrentiya,RU,2020-05-08 03:34:01,65.58,-171.0,32.88,91,41,4.79,scattered clouds,0.0,0.0
361,Ancud,CL,2020-05-08 03:34:02,-41.87,-73.82,57.0,100,90,12.75,overcast clouds,0.0,0.0
362,Mount Gambier,AU,2020-05-08 03:30:47,-37.83,140.77,64.4,68,75,17.22,broken clouds,0.0,0.0
363,Preobrazheniye,RU,2020-05-08 03:34:02,42.9,133.91,56.23,50,79,16.2,broken clouds,0.0,0.0
364,Kapit,MY,2020-05-08 03:34:03,2.02,112.93,90.16,70,92,1.21,moderate rain,1.01,0.0
365,Soto La Marina,MX,2020-05-08 03:34:03,23.77,-98.22,78.01,82,5,8.01,clear sky,0.0,0.0
366,Thomastown,IE,2020-05-08 03:34:03,52.53,-7.14,48.0,92,100,2.73,overcast clouds,0.0,0.0
367,Coquimbo,CL,2020-05-08 03:34:03,-29.95,-71.34,57.2,87,84,4.7,broken clouds,0.0,0.0
368,Katobu,ID,2020-05-08 03:34:03,-4.94,122.53,84.16,81,98,7.4,moderate rain,1.82,0.0
369,Vardo,NO,2020-05-08 03:34:03,70.37,31.11,35.6,79,40,18.34,scattered clouds,0.0,0.0
370,Plettenberg Bay,ZA,2020-05-08 03:34:03,-34.05,23.37,61.45,69,70,5.26,broken clouds,0.0,0.0
371,Powell River,CA,2020-05-08 03:34:04,49.85,-124.54,60.8,38,40,5.82,scattered clouds,0.0,0.0
372,Mocuba,MZ,2020-05-08 03:34:04,-16.84,36.99,64.98,98,84,4.43,broken clouds,0.0,0.0
373,Honiara,SB,2020-05-08 03:32:02,-9.43,159.95,87.8,70,40,10.29,scattered clouds,0.0,0.0
374,Karratha,AU,2020-05-08 03:31:01,-20.74,116.85,89.1,35,51,6.58,broken clouds,0.0,0.0
375,Barentu,ER,2020-05-08 03:34:04,15.11,37.59,79.74,52,100,0.67,overcast clouds,0.0,0.0
376,San Jose De Rio Tinto,HN,2020-05-08 03:34:04,14.93,-85.7,72.01,88,30,2.71,scattered clouds,0.0,0.0
377,Ribita,RO,2020-05-08 03:34:05,46.18,22.77,42.44,74,0,2.66,clear sky,0.0,0.0
378,Paita,PE,2020-05-08 03:34:05,-5.09,-81.11,72.59,77,3,12.08,clear sky,0.0,0.0
379,Muros,ES,2020-05-08 03:34:05,42.78,-9.06,55.99,90,65,1.99,broken clouds,0.0,0.0
380,Albina,SR,2020-05-08 03:34:05,5.5,-54.05,73.53,93,68,2.37,broken clouds,0.0,0.0
381,Domoni,KM,2020-05-08 03:34:05,-12.26,44.53,80.22,79,50,12.01,scattered clouds,0.0,0.0
382,Lockhart,US,2020-05-08 03:34:05,28.62,-81.44,64.99,55,1,8.05,clear sky,0.0,0.0
383,Jutai,BR,2020-05-08 03:34:06,-5.18,-68.9,73.65,95,100,3.0,overcast clouds,0.0,0.0
384,Casa Nova,BR,2020-05-08 03:34:06,-9.42,-41.13,77.65,67,97,7.09,light rain,0.14,0.0
385,Woodward,US,2020-05-08 03:34:06,36.43,-99.39,71.6,52,90,12.75,overcast clouds,0.0,0.0
386,Kungurtug,RU,2020-05-08 03:34:06,50.6,97.52,41.79,58,91,11.39,overcast clouds,0.0,0.0
387,Te Anau,NZ,2020-05-08 03:34:06,-45.42,167.72,56.55,75,84,4.41,broken clouds,0.0,0.0
388,Filingue,NE,2020-05-08 03:34:07,14.35,3.32,84.67,14,71,5.79,broken clouds,0.0,0.0
389,Villefranche-Sur-Saone,FR,2020-05-08 03:34:07,45.98,4.72,62.6,63,100,8.05,overcast clouds,0.0,0.0
390,Abu Dhabi,AE,2020-05-08 03:33:10,24.47,54.37,84.2,62,37,8.05,scattered clouds,0.0,0.0
391,Bertoua,CM,2020-05-08 03:34:07,4.58,13.68,68.52,96,40,2.35,scattered clouds,0.0,0.0
392,Camopi,GF,2020-05-08 03:34:07,3.17,-52.32,73.13,97,100,0.27,light rain,0.35,0.0
393,Horsham,GB,2020-05-08 03:34:08,51.06,-0.33,51.01,87,68,1.12,broken clouds,0.0,0.0
394,Tongliao,CN,2020-05-08 03:34:08,43.61,122.27,69.91,22,100,6.29,overcast clouds,0.0,0.0
395,Country Club Hills,US,2020-05-08 03:34:08,41.57,-87.72,46.99,51,1,3.13,clear sky,0.0,0.0
396,Waddan,LY,2020-05-08 03:34:08,29.16,16.14,63.3,77,4,5.59,clear sky,0.0,0.0
397,Nuuk,GL,2020-05-08 03:34:08,64.18,-51.72,39.2,69,90,2.24,overcast clouds,0.0,0.0
398,Petropavlovsk-Kamchatskiy,RU,2020-05-08 03:30:39,53.05,158.65,50.0,31,34,13.42,scattered clouds,0.0,0.0
399,Blackfoot,US,2020-05-08 03:34:09,43.19,-112.34,51.01,36,0,5.01,clear sky,0.0,0.0
400,Nasirabad,IN,2020-05-08 03:34:09,26.3,74.73,95.56,13,0,4.34,clear sky,0.0,0.0
401,Nicoya,CR,2020-05-08 03:30:02,10.15,-85.45,73.0,88,61,21.0,broken clouds,0.0,0.0
402,Alugan,PH,2020-05-08 03:34:09,12.22,125.48,85.51,68,83,7.85,broken clouds,0.0,0.0
403,Khuzhir,RU,2020-05-08 03:34:09,53.19,107.34,40.68,73,85,8.1,overcast clouds,0.0,0.0
404,Karatuzskoye,RU,2020-05-08 03:34:10,53.61,92.87,49.96,49,20,5.1,few clouds,0.0,0.0
405,Ajra,IN,2020-05-08 03:34:10,16.12,74.2,78.8,61,68,3.36,broken clouds,0.0,0.0
406,Bilma,NE,2020-05-08 03:34:10,18.69,12.92,76.75,16,0,4.79,clear sky,0.0,0.0
407,Salalah,OM,2020-05-08 03:34:10,17.02,54.09,82.4,83,0,5.82,clear sky,0.0,0.0
408,Arman,RU,2020-05-08 03:34:10,59.7,150.17,39.58,70,17,4.27,few clouds,0.0,0.0
409,Acapulco,MX,2020-05-08 03:34:10,16.86,-99.89,80.6,69,5,5.82,clear sky,0.0,0.0
410,Kasongo,CD,2020-05-08 03:34:11,-4.45,26.67,69.21,98,100,2.08,overcast clouds,0.0,0.0
411,Castrillon,ES,2020-05-08 03:34:11,43.4,-6.79,57.2,100,94,5.82,thunderstorm,0.0,0.0
412,Brae,GB,2020-05-08 03:34:11,60.4,-1.35,44.6,87,94,9.17,overcast clouds,0.0,0.0
413,Naze,JP,2020-05-08 03:34:11,28.37,129.48,77.0,69,40,17.22,scattered clouds,0.0,0.0
414,Port Augusta,AU,2020-05-08 03:34:11,-32.5,137.77,71.6,40,16,17.22,few clouds,0.0,0.0
415,Zhob,PK,2020-05-08 03:34:11,31.34,69.45,78.82,22,14,3.18,few clouds,0.0,0.0
416,Wanning,CN,2020-05-08 03:34:12,18.8,110.4,87.93,69,66,16.51,broken clouds,0.0,0.0
417,La Roda,ES,2020-05-08 03:34:12,39.22,-2.15,53.01,81,24,4.7,few clouds,0.0,0.0
418,Bogorodskoye,RU,2020-05-08 03:34:12,56.55,37.88,47.28,93,82,6.69,broken clouds,0.0,0.0
419,Port Hardy,CA,2020-05-08 03:30:21,50.7,-127.42,55.4,62,75,5.82,broken clouds,0.0,0.0
420,Jibuti,DJ,2020-05-08 03:31:52,11.5,42.5,86.0,79,40,4.7,scattered clouds,0.0,0.0
421,Coihaique,CL,2020-05-08 03:34:12,-45.58,-72.07,55.4,87,75,3.36,broken clouds,0.0,0.0
422,Sitka,US,2020-05-08 03:33:03,57.05,-135.33,55.4,37,40,9.17,scattered clouds,0.0,0.0
423,Bogale,MM,2020-05-08 03:34:13,16.28,95.4,98.73,35,92,11.27,overcast clouds,0.0,0.0
424,Bahia Blanca,AR,2020-05-08 03:34:13,-38.72,-62.27,56.05,44,63,14.18,broken clouds,0.0,0.0
425,Yatou,CN,2020-05-08 03:34:13,37.15,122.38,55.02,82,100,14.03,light rain,0.22,0.0
426,Lake Charles,US,2020-05-08 03:29:48,30.21,-93.2,71.6,88,5,6.93,clear sky,0.0,0.0
427,Wajima,JP,2020-05-08 03:34:13,37.4,136.9,68.0,22,0,6.93,clear sky,0.0,0.0
428,Hanna,CA,2020-05-08 03:30:34,51.63,-111.9,55.99,43,99,8.01,light rain,0.21,0.0
429,Khorinsk,RU,2020-05-08 03:34:14,52.17,109.77,56.12,37,99,8.86,overcast clouds,0.0,0.0
430,Beloha,MG,2020-05-08 03:34:14,-25.17,45.05,63.52,93,6,6.33,clear sky,0.0,0.0
431,Boca Do Acre,BR,2020-05-08 03:34:14,-8.75,-67.4,67.35,80,100,4.36,overcast clouds,0.0,0.0
432,Jian,CN,2020-05-08 03:34:14,27.12,114.98,92.48,60,13,16.96,few clouds,0.0,0.0
433,Dobrosloveni,RO,2020-05-08 03:34:14,44.18,24.37,46.99,93,2,2.24,clear sky,0.0,0.0
434,Veraval,IN,2020-05-08 03:34:14,20.9,70.37,87.66,58,0,11.18,clear sky,0.0,0.0
435,Yumen,CN,2020-05-08 03:34:15,40.28,97.2,57.78,26,17,24.0,few clouds,0.0,0.0
436,Lieksa,FI,2020-05-08 03:34:15,63.32,30.02,33.84,87,15,7.07,few clouds,0.0,0.0
437,Matay,EG,2020-05-08 03:30:10,28.42,30.78,69.55,34,0,5.23,clear sky,0.0,0.0
438,Idlib,SY,2020-05-08 03:34:15,35.93,36.63,51.8,100,75,3.36,broken clouds,0.0,0.0
439,Kindu,CD,2020-05-08 03:34:15,-2.95,25.95,70.36,96,100,1.23,overcast clouds,0.0,0.0
440,Leningradskiy,RU,2020-05-08 03:34:16,69.38,178.42,30.72,93,0,4.41,clear sky,0.0,0.0
441,Brownwood,US,2020-05-08 03:34:16,31.71,-98.99,78.8,57,20,17.22,few clouds,0.0,0.0
442,Betafo,MG,2020-05-08 03:34:16,-19.83,46.85,57.52,77,100,3.76,overcast clouds,0.0,0.0
443,Khartoum,SD,2020-05-08 03:29:57,15.55,32.53,84.2,11,22,11.41,few clouds,0.0,0.0
444,Tungor,RU,2020-05-08 03:34:16,53.38,142.96,42.1,65,98,14.92,overcast clouds,0.0,0.0
445,Hovd,MN,2020-05-08 03:34:16,48.01,91.64,55.62,36,32,11.74,scattered clouds,0.0,0.0
446,Katsuura,JP,2020-05-08 03:34:17,35.13,140.3,72.0,39,31,4.7,scattered clouds,0.0,0.0
447,Tete,MZ,2020-05-08 03:34:17,-16.16,33.59,64.4,88,40,2.73,scattered clouds,0.0,0.0
448,Sur,OM,2020-05-08 03:29:58,22.57,59.53,92.86,34,0,4.14,clear sky,0.0,0.0
449,Flin Flon,CA,2020-05-08 03:34:17,54.77,-101.86,35.47,77,94,9.33,overcast clouds,0.0,0.0
450,Hearst,CA,2020-05-08 03:34:17,49.68,-83.67,16.93,96,38,5.03,scattered clouds,0.0,0.0
451,Zhigansk,RU,2020-05-08 03:34:17,66.77,123.37,25.14,93,100,30.09,overcast clouds,0.0,0.0
452,Celestun,MX,2020-05-08 03:34:17,20.87,-90.4,78.62,76,41,16.51,scattered clouds,0.0,0.0
453,Hornepayne,CA,2020-05-08 03:34:18,49.21,-84.77,22.48,93,100,6.91,overcast clouds,0.0,0.0
454,Paengaroa,NZ,2020-05-08 03:34:18,-37.82,176.42,66.99,56,0,3.0,clear sky,0.0,0.0
455,Derzhavinsk,KZ,2020-05-08 03:33:00,51.1,66.32,63.52,43,0,15.41,clear sky,0.0,0.0
456,Nong Khae,TH,2020-05-08 03:32:22,14.34,100.87,98.01,65,31,8.93,scattered clouds,0.0,0.0
457,Shelabolikha,RU,2020-05-08 03:34:18,53.41,82.62,60.8,36,61,8.95,broken clouds,0.0,0.0
458,Port Jervis,US,2020-05-08 03:34:18,41.38,-74.69,53.6,50,75,6.93,broken clouds,0.0,0.0
459,Nikki,BJ,2020-05-08 03:34:19,9.94,3.21,78.15,77,34,9.78,scattered clouds,0.0,0.0
460,Karlivka,UA,2020-05-08 03:34:19,49.46,35.13,46.94,87,39,7.4,scattered clouds,0.0,0.0
461,Saint Andrews,US,2020-05-08 03:34:19,34.05,-81.13,53.6,66,1,4.54,clear sky,0.0,0.0
462,Jackson,US,2020-05-08 03:34:19,42.42,-122.83,80.6,19,1,4.7,clear sky,0.0,0.0
463,Boddam,GB,2020-05-08 03:34:19,57.47,-1.78,50.0,93,24,3.36,few clouds,0.0,0.0
464,Changping,CN,2020-05-08 03:34:19,40.22,116.22,59.0,87,90,4.47,overcast clouds,0.0,0.0
465,San Pedro,PH,2020-05-08 03:34:20,14.35,121.02,95.0,53,20,8.05,few clouds,0.0,0.0
466,Mezen,RU,2020-05-08 03:34:20,65.85,44.24,36.14,88,93,4.05,overcast clouds,0.0,0.0
467,Shache,CN,2020-05-08 03:34:20,38.42,77.24,64.54,42,92,5.14,overcast clouds,0.0,0.0
468,San Patricio,MX,2020-05-08 03:32:14,19.22,-104.7,74.66,78,0,1.99,clear sky,0.0,0.0
469,Husavik,IS,2020-05-08 03:34:20,66.04,-17.34,33.8,55,75,17.22,light rain,0.0,0.0
470,Kiama,AU,2020-05-08 03:33:34,-34.68,150.87,80.01,45,0,10.0,clear sky,0.0,0.0
471,Kirakira,SB,2020-05-08 03:34:21,-10.45,161.92,82.89,78,47,6.42,light rain,0.94,0.0
472,Vila Franca Do Campo,PT,2020-05-08 03:34:21,37.72,-25.43,62.6,88,75,13.87,broken clouds,0.0,0.0
473,Gediz,TR,2020-05-08 03:34:21,39.04,29.41,42.08,75,90,6.71,overcast clouds,0.0,0.0
474,Quipapa,BR,2020-05-08 03:34:21,-8.83,-36.01,70.99,92,97,1.48,overcast clouds,0.0,0.0
475,Mbala,ZM,2020-05-08 03:34:22,-8.84,31.37,58.06,91,100,9.84,overcast clouds,0.0,0.0
476,Svetlogorsk,BY,2020-05-08 03:34:22,52.63,29.73,39.33,86,0,9.1,clear sky,0.0,0.0
477,Wangqing,CN,2020-05-08 03:34:22,43.32,129.76,69.71,37,100,8.7,overcast clouds,0.0,0.0
478,Albury,AU,2020-05-08 03:30:04,-36.08,146.92,68.0,52,0,8.05,clear sky,0.0,0.0
479,Tecoanapa,MX,2020-05-08 03:34:22,16.52,-98.75,79.11,79,54,3.85,broken clouds,0.0,0.0
480,Teguldet,RU,2020-05-08 03:34:22,57.31,88.17,51.96,49,91,3.29,overcast clouds,0.0,0.0
481,Santona,ES,2020-05-08 03:34:23,43.44,-3.46,61.0,100,90,3.06,overcast clouds,0.0,0.0
482,Quang Ngai,VN,2020-05-08 03:34:23,15.12,108.8,95.65,50,50,8.01,scattered clouds,0.0,0.0
483,Oil City,US,2020-05-08 03:34:23,41.43,-79.71,42.8,70,1,6.93,clear sky,0.0,0.0
484,Njombe,TZ,2020-05-08 03:34:23,-9.33,34.77,54.93,95,88,8.21,overcast clouds,0.0,0.0
485,Kangaatsiaq,GL,2020-05-08 03:34:23,68.31,-53.46,28.98,91,0,12.73,clear sky,0.0,0.0
486,Fugen,AT,2020-05-08 03:34:24,47.35,11.85,46.99,62,100,4.79,overcast clouds,0.0,0.0
487,Kalabo,ZM,2020-05-08 03:34:24,-14.97,22.68,56.73,70,0,5.08,clear sky,0.0,0.0
488,Havoysund,NO,2020-05-08 03:34:24,71.0,24.66,33.8,86,40,21.92,shower rain,0.0,0.0
489,Hasaki,JP,2020-05-08 03:34:24,35.73,140.83,72.0,37,20,5.82,few clouds,0.0,0.0
490,Kulhudhuffushi,MV,2020-05-08 03:34:25,6.62,73.07,83.64,71,100,4.85,overcast clouds,0.0,0.0
491,Palmer,US,2020-05-08 03:33:54,42.16,-72.33,55.4,47,90,17.22,light rain,0.0,0.0
492,Killybegs,IE,2020-05-08 03:34:25,54.63,-8.45,52.0,92,100,1.01,overcast clouds,0.0,0.0
493,Warrnambool,AU,2020-05-08 03:34:25,-38.38,142.48,60.01,80,39,14.45,scattered clouds,0.0,0.0
494,Coahuayana,MX,2020-05-08 03:34:25,18.73,-103.68,74.37,70,0,2.91,clear sky,0.0,0.0
495,Ziyang,CN,2020-05-08 03:34:25,29.25,117.85,86.74,67,91,2.62,overcast clouds,0.0,0.0
496,Belyy Yar,RU,2020-05-08 03:34:25,53.6,91.39,50.0,53,17,6.71,few clouds,0.0,0.0
497,Serro,BR,2020-05-08 03:34:26,-18.6,-43.38,62.11,93,100,2.75,overcast clouds,0.0,0.0
498,Macheng,CN,2020-05-08 03:34:26,31.18,115.03,68.29,87,100,10.58,light rain,0.31,0.0
499,Odienne,CI,2020-05-08 03:34:26,9.51,-7.57,75.2,79,64,4.47,broken clouds,0.0,0.0
500,Pinega,RU,2020-05-08 03:34:26,64.7,43.39,37.83,79,99,2.86,overcast clouds,0.0,0.0
501,Santa Maria,BR,2020-05-08 03:34:26,-29.68,-53.81,44.6,100,0,1.12,clear sky,0.0,0.0
502,Ugoofaaru,MV,2020-05-08 03:34:27,5.67,73.0,84.02,74,94,5.84,overcast clouds,0.0,0.0
503,Mtsensk,RU,2020-05-08 03:34:27,53.28,36.57,46.04,83,64,3.53,broken clouds,0.0,0.0
504,Uvat,RU,2020-05-08 03:34:27,59.14,68.9,68.81,46,27,7.61,scattered clouds,0.0,0.0
505,Bambanglipuro,ID,2020-05-08 03:34:27,-7.95,110.28,86.58,72,53,11.59,light rain,0.11,0.0
506,Tatvan,TR,2020-05-08 03:34:27,38.51,42.28,49.37,75,45,7.87,scattered clouds,0.0,0.0
507,Teya,RU,2020-05-08 03:34:27,60.38,92.63,45.46,58,57,5.53,broken clouds,0.0,0.0
508,Saint-Augustin,CA,2020-05-08 03:34:27,51.23,-58.65,33.57,97,100,6.96,overcast clouds,0.0,0.0
509,Olinda,BR,2020-05-08 03:34:28,-8.01,-34.86,82.4,69,20,8.05,few clouds,0.0,0.0
510,Youkounkoun,GN,2020-05-08 03:34:28,12.53,-13.13,80.87,61,5,6.6,clear sky,0.0,0.0
511,Lesnoy,RU,2020-05-08 03:34:28,57.62,63.08,67.23,34,82,8.79,broken clouds,0.0,0.0
512,Mafinga,TZ,2020-05-08 03:34:28,-7.25,35.07,64.72,87,54,2.75,broken clouds,0.0,0.0
513,Muzaffarabad,PK,2020-05-08 03:31:33,34.37,73.47,79.39,31,61,1.54,broken clouds,0.0,0.0
514,Pitimbu,BR,2020-05-08 03:34:28,-7.47,-34.81,75.2,94,20,2.24,few clouds,0.0,0.0
515,Cogua,CO,2020-05-08 03:34:29,5.06,-73.98,55.4,76,20,8.05,few clouds,0.0,0.0
516,Pareora,NZ,2020-05-08 03:34:29,-44.49,171.21,53.01,96,100,5.01,light rain,0.27,0.0
517,Guhagar,IN,2020-05-08 03:34:29,17.48,73.19,88.63,55,8,3.18,clear sky,0.0,0.0
518,Tayu,ID,2020-05-08 03:34:29,-6.54,111.05,89.64,60,22,8.28,few clouds,0.0,0.0
519,Cidreira,BR,2020-05-08 03:34:29,-30.18,-50.21,55.13,88,8,5.19,clear sky,0.0,0.0
520,Olafsvik,IS,2020-05-08 03:34:29,64.89,-23.71,35.91,82,30,16.31,scattered clouds,0.0,0.0
521,Vostok,RU,2020-05-08 03:34:30,46.49,135.88,65.1,37,100,10.89,overcast clouds,0.0,0.0
522,Zavodouspenskoye,RU,2020-05-08 03:34:30,56.86,65.02,68.0,30,0,8.95,clear sky,0.0,0.0
523,Belaya Gora,RU,2020-05-08 03:34:30,68.53,146.42,33.91,91,55,14.45,broken clouds,0.0,0.0
524,Garowe,SO,2020-05-08 03:34:30,8.41,48.48,79.34,72,22,8.23,few clouds,0.0,0.0
525,Kostomuksha,RU,2020-05-08 03:34:30,64.57,30.58,32.59,94,6,6.69,clear sky,0.0,0.0
526,Taunggyi,MM,2020-05-08 03:34:30,20.78,97.03,85.21,39,0,7.61,clear sky,0.0,0.0
527,Ouadda,CF,2020-05-08 03:34:31,8.08,22.4,71.46,82,100,3.53,overcast clouds,0.0,0.0
528,Canatlan,MX,2020-05-08 03:34:31,24.52,-104.78,69.01,40,80,15.01,broken clouds,0.0,0.0
529,Fortuna,US,2020-05-08 03:34:31,40.6,-124.16,55.0,87,1,11.41,clear sky,0.0,0.0
530,Sandpoint,US,2020-05-08 03:34:31,48.28,-116.55,51.01,71,90,0.92,light rain,0.0,0.0
531,Faya,SA,2020-05-08 03:34:32,18.39,42.45,66.2,77,26,3.27,scattered clouds,0.0,0.0
532,Yeppoon,AU,2020-05-08 03:34:32,-23.13,150.73,80.6,42,75,10.29,broken clouds,0.0,0.0
533,Verkhnevilyuysk,RU,2020-05-08 03:34:32,63.45,120.32,30.43,85,100,12.35,overcast clouds,0.0,0.0
534,Ulladulla,AU,2020-05-08 03:34:32,-35.35,150.47,79.0,27,0,18.34,clear sky,0.0,0.0
535,Freeport,US,2020-05-08 03:34:32,40.66,-73.58,60.01,38,90,9.17,overcast clouds,0.0,0.0
536,Chiplun,IN,2020-05-08 03:34:32,17.53,73.52,93.54,42,2,2.46,clear sky,0.0,0.0
537,Urcos,PE,2020-05-08 03:34:33,-13.69,-71.62,44.01,91,97,3.0,overcast clouds,0.0,0.0
538,Ajdabiya,LY,2020-05-08 03:34:33,30.76,20.23,63.39,76,0,12.17,clear sky,0.0,0.0
539,Huarmey,PE,2020-05-08 03:34:33,-10.07,-78.15,70.39,77,96,7.02,overcast clouds,0.0,0.0
540,Olhao,PT,2020-05-08 03:34:33,37.03,-7.84,64.4,88,75,4.7,broken clouds,0.0,0.0
541,Jardim,BR,2020-05-08 03:34:34,-21.48,-56.14,49.73,65,0,3.87,clear sky,0.0,0.0
542,Bose,IT,2020-05-08 03:34:34,45.46,8.01,59.0,70,100,1.99,overcast clouds,0.0,0.0
543,Los Llanos De Aridane,ES,2020-05-08 03:34:34,28.66,-17.92,64.4,68,17,6.93,few clouds,0.0,0.0
544,Awjilah,LY,2020-05-08 03:34:34,29.11,21.29,67.78,54,0,13.15,clear sky,0.0,0.0
545,Aswan,EG,2020-05-08 03:34:34,24.09,32.91,74.7,19,80,6.13,broken clouds,0.0,0.0
546,Luau,AO,2020-05-08 03:34:34,-10.71,22.22,61.79,73,86,4.65,overcast clouds,0.0,0.0
547,Malyye Derbety,RU,2020-05-08 03:34:34,47.95,44.68,58.35,89,100,5.48,light rain,0.24,0.0
